"point_name","point_value","acc_lat","acc_long","grid_fromlat","grid_fromlong","grid_tolat","grid_tolong"
"(FALLS CREEK)","9","-36.86302980219528","147.2773343596298","-36.8515625","147.2578125","-36.87109375","147.29296875"
"(FRENCH ISLAND)","1","-38.3896857027807","145.34912538499438","-38.375","145.32421875","-38.39453125","145.359375"
"(LAKE MOUNTAIN)","8","-37.51268397032527","145.86543342209396","-37.49609375","145.8515625","-37.515625","145.88671875"
"(MOUNT BAW BAW)","6","-37.844636523872026","146.250942134055","-37.828125","146.23828125","-37.84765625","146.2734375"
"(MOUNT BULLER)","13","-37.13675956321247","146.44839196795948","-37.125","146.4140625","-37.14453125","146.44921875"
"(MOUNT HOTHAM)","29","-36.98762159040454","147.1228617648123","-36.96875","147.1171875","-36.98828125","147.15234375"
"(MOUNT STIRLING)","1","-37.13948038697457","146.48239045153971","-37.125","146.44921875","-37.14453125","146.484375"
"ALPINE","402","-36.71896688683586","146.95013096384034","-36.71484375","146.94140625","-36.734375","146.9765625"
"ARARAT","210","-37.36530443621945","142.91709911397248","-37.359375","142.8984375","-37.37890625","142.93359375"
"BALLARAT","1824","-37.56005285231909","143.84364526405085","-37.5546875","143.8125","-37.57421875","143.84765625"
"BANYULE","1647","-37.732130784167495","145.07562265690203","-37.73046875","145.04296875","-37.75","145.078125"
"BASS COAST","578","-38.51346270560021","145.49547928067508","-38.51171875","145.46484375","-38.53125","145.5"
"BAW BAW","1223","-38.08287272672401","146.01433103240612","-38.08203125","145.9921875","-38.1015625","146.02734375"
"BAYSIDE","1504","-37.93197843417946","145.0134404636477","-37.92578125","145.0078125","-37.9453125","145.04296875"
"BENALLA","299","-36.57092545416946","145.99480242752037","-36.55859375","145.9921875","-36.578125","146.02734375"
"BENDIGO","1880","-36.76604733588083","144.30625605873112","-36.75390625","144.3046875","-36.7734375","144.33984375"
"BOROONDARA","2892","-37.82053178789693","145.06013344512633","-37.80859375","145.04296875","-37.828125","145.078125"
"BRIMBANK","3163","-37.754745662078605","144.80746803393322","-37.75","144.796875","-37.76953125","144.83203125"
"BULOKE","109","-35.99871386581648","143.06761406423132","-35.9921875","143.0390625","-36.01171875","143.07421875"
"CAMPASPE","662","-36.27376439601604","144.8119967859651","-36.265625","144.796875","-36.28515625","144.83203125"
"CARDINIA","1496","-38.051761457579616","145.50181628435732","-38.04296875","145.5","-38.0625","145.53515625"
"CASEY","3960","-38.049973336585815","145.28707770072393","-38.04296875","145.25390625","-38.0625","145.2890625"
"CENTRAL GOLDFIELDS","239","-37.03809342548478","143.7396000237518","-37.02734375","143.70703125","-37.046875","143.7421875"
"COLAC OTWAY","581","-38.5121190127228","143.59921855402828","-38.51171875","143.56640625","-38.53125","143.6015625"
"CORANGAMITE","348","-38.32727828902724","143.1051205670944","-38.31640625","143.07421875","-38.3359375","143.109375"
"DANDENONG","3600","-37.9796768201202","145.1900444370006","-37.96484375","145.18359375","-37.984375","145.21875"
"DAREBIN","2571","-37.74147879760858","145.00912407730792","-37.73046875","145.0078125","-37.75","145.04296875"
"EAST GIPPSLAND","1034","-37.649660595981565","148.0408481225559","-37.6328125","148.03125","-37.65234375","148.06640625"
"FRANKSTON","2099","-38.13572768226124","145.1517373556042","-38.12109375","145.1484375","-38.140625","145.18359375"
"GANNAWARRA","202","-35.74676429585923","143.97875036253797","-35.73828125","143.953125","-35.7578125","143.98828125"
"GEELONG","3407","-38.14302872212968","144.3794170615027","-38.140625","144.375","-38.16015625","144.41015625"
"GLEN EIRA","2221","-37.89679402818102","145.0395842412472","-37.88671875","145.0078125","-37.90625","145.04296875"
"GLENELG","365","-38.12333824801629","141.51027762884306","-38.12109375","141.4921875","-38.140625","141.52734375"
"GOLDEN PLAINS","341","-37.84767956819384","143.92315606913297","-37.84765625","143.91796875","-37.8671875","143.953125"
"HEPBURN","325","-37.34009636213845","144.07038327032313","-37.33984375","144.05859375","-37.359375","144.09375"
"HINDMARSH","101","-36.26590482071162","141.8457630579358","-36.265625","141.84375","-36.28515625","141.87890625"
"HOBSONS BAY","1321","-37.84808859109316","144.83357290371495","-37.84765625","144.83203125","-37.8671875","144.8671875"
"HORSHAM","343","-36.73107586116851","142.1992319699072","-36.71484375","142.1953125","-36.734375","142.23046875"
"HUME","2762","-37.64487907374726","144.8903232361376","-37.6328125","144.8671875","-37.65234375","144.90234375"
"INDIGO","294","-36.212392693270274","146.70693158224998","-36.20703125","146.6953125","-36.2265625","146.73046875"
"KINGSTON","2597","-37.98673969876487","145.0938735182459","-37.984375","145.078125","-38.00390625","145.11328125"
"KNOX","2380","-37.882151904359915","145.25836986721538","-37.8671875","145.25390625","-37.88671875","145.2890625"
"LATROBE","1242","-38.22097059504007","146.4258766556483","-38.21875","146.4140625","-38.23828125","146.44921875"
"LODDON","217","-36.46601400189692","143.86327938676249","-36.4609375","143.84765625","-36.48046875","143.8828125"
"MACEDON RANGES","707","-37.36581585830889","144.59255439731413","-37.359375","144.5859375","-37.37890625","144.62109375"
"MANNINGHAM","1357","-37.77451285424986","145.15305248891391","-37.76953125","145.1484375","-37.7890625","145.18359375"
"MANSFIELD","400","-37.14210978656096","146.1014222499394","-37.125","146.09765625","-37.14453125","146.1328125"
"MARIBYRNONG","1410","-37.79696343952193","144.88341239031104","-37.7890625","144.8671875","-37.80859375","144.90234375"
"MAROONDAH","1726","-37.80970239373835","145.25957308021918","-37.80859375","145.25390625","-37.828125","145.2890625"
"MELBOURNE","6253","-37.812636779204446","144.96015942581576","-37.80859375","144.9375","-37.828125","144.97265625"
"MELTON","1310","-37.70762005838174","144.65349344484935","-37.69140625","144.62109375","-37.7109375","144.65625"
"MILDURA","852","-34.33114843417987","142.0963718375806","-34.3125","142.08984375","-34.33203125","142.125"
"MITCHELL","844","-37.2304910715556","145.03620672327713","-37.22265625","145.0078125","-37.2421875","145.04296875"
"MOIRA","491","-36.02182777740445","145.59162116056513","-36.01171875","145.5703125","-36.03125","145.60546875"
"MONASH","2962","-37.89670238392402","145.1367800593297","-37.88671875","145.11328125","-37.90625","145.1484375"
"MOONEE VALLEY","1643","-37.75318577949715","144.90554316400613","-37.75","144.90234375","-37.76953125","144.9375"
"MOORABOOL","610","-37.63053920164565","144.29467383641637","-37.61328125","144.26953125","-37.6328125","144.3046875"
"MORELAND","3017","-37.7409403898932","144.95272477814652","-37.73046875","144.9375","-37.75","144.97265625"
"MORNINGTON PENINSULA","2487","-38.301619031259804","145.0255331956954","-38.296875","145.0078125","-38.31640625","145.04296875"
"MOUNT ALEXANDER","371","-37.058944609399454","144.21425810899223","-37.046875","144.19921875","-37.06640625","144.234375"
"MOYNE","327","-38.25432589800899","142.47395324211618","-38.23828125","142.44140625","-38.2578125","142.4765625"
"MURRINDINDI","737","-37.37038416296409","145.53601364054683","-37.359375","145.53515625","-37.37890625","145.5703125"
"NILLUMBIK","763","-37.66685743437097","145.1825369968651","-37.65234375","145.1484375","-37.671875","145.18359375"
"NORTHERN GRAMPIANS","248","-36.96288446930526","142.8082959915274","-36.94921875","142.79296875","-36.96875","142.828125"
"PORT PHILLIP","2224","-37.85285529872358","144.97124367338765","-37.84765625","144.9375","-37.8671875","144.97265625"
"PYRENEES","208","-37.38710555755146","143.42955468631826","-37.37890625","143.42578125","-37.3984375","143.4609375"
"QUEENSCLIFFE","21","-38.27487711018904","144.6305520363307","-38.2578125","144.62109375","-38.27734375","144.65625"
"SHEPPARTON","1262","-36.39539731083875","145.38113447215233","-36.3828125","145.359375","-36.40234375","145.39453125"
"SOUTH GIPPSLAND","713","-38.50618358047137","145.97571780706463","-38.4921875","145.95703125","-38.51171875","145.9921875"
"SOUTHERN GRAMPIANS","277","-37.667222941113955","142.03877591117757","-37.65234375","142.01953125","-37.671875","142.0546875"
"STONNINGTON","2291","-37.85522099268743","145.024716071335","-37.84765625","145.0078125","-37.8671875","145.04296875"
"STRATHBOGIE","365","-36.7781880023893","145.41312617584825","-36.7734375","145.39453125","-36.79296875","145.4296875"
"SURF COAST","572","-38.364820881143196","144.12653672618984","-38.35546875","144.09375","-38.375","144.12890625"
"SWAN HILL","294","-35.1673556327279","143.3378941800896","-35.15234375","143.3203125","-35.171875","143.35546875"
"TOWONG","213","-36.260506955577775","147.45241712919727","-36.24609375","147.43359375","-36.265625","147.46875"
"WANGARATTA","501","-36.44036041079488","146.3616750589931","-36.421875","146.34375","-36.44140625","146.37890625"
"WARRNAMBOOL","439","-38.376989409962626","142.4878623495957","-38.375","142.4765625","-38.39453125","142.51171875"
"WELLINGTON","939","-38.0633186518733","146.94070002363168","-38.0625","146.90625","-38.08203125","146.94140625"
"WEST WIMMERA","101","-36.77053492086706","141.32873597008094","-36.75390625","141.31640625","-36.7734375","141.3515625"
"WHITEHORSE","2183","-37.82781992260051","145.15072765246845","-37.80859375","145.1484375","-37.828125","145.18359375"
"WHITTLESEA","2157","-37.64696023420428","145.04447222534742","-37.6328125","145.04296875","-37.65234375","145.078125"
"WODONGA","495","-36.12655623107429","146.88324609679464","-36.109375","146.87109375","-36.12890625","146.90625"
"WYNDHAM","1951","-37.87266249104901","144.69704854931211","-37.8671875","144.69140625","-37.88671875","144.7265625"
"YARRA","2432","-37.80475800644144","144.99139499939486","-37.7890625","144.97265625","-37.80859375","145.0078125"
"YARRA RANGES","2917","-37.78603536928094","145.4352519299433","-37.76953125","145.4296875","-37.7890625","145.46484375"
"YARRIAMBIACK","95","-36.1879362667021","142.43532148061024","-36.1875","142.40625","-36.20703125","142.44140625"
